City_ID,City,City_ID,Country,Max Temp,Weather description,Lat,Lng,Hotel Name
0,Saint-Philippe,0,re,78.8,light rain,-21.3585,55.7679,"Chambres d'hôte ""La Trinité"""
2,Batie,2,bf,81.41,few clouds,9.8833,-2.9167,Auberge SONDAR AFACI
3,Port Macquarie,3,au,70.0,broken clouds,-31.4333,152.9167,Rydges Port Macquarie
4,Puerto Ayora,4,ec,77.0,clear sky,-0.7393,-90.3518,Finch Bay Galapagos Hotel
6,Sao Filipe,6,cv,70.05,scattered clouds,14.8961,-24.4956,Tortuga B&B
7,Mataura,7,pf,62.01,overcast clouds,-46.1927,168.8643,Ellie's Villa
8,Hithadhoo,8,mv,83.91,overcast clouds,-0.6,73.0833,Scoop Guest House
10,Makakilo City,10,us,82.4,few clouds,21.3469,-158.0858,Marriott's Ko Olina Beach Club
12,Hobart,12,au,79.0,clear sky,-42.8794,147.3294,Mantra on Collins Hobart
14,Catuday,14,ph,84.94,few clouds,16.2923,119.8062,GResort
17,Kasulu,17,tz,61.84,light rain,-4.5767,30.1025,Nazaret lodge
21,Cidreira,21,br,68.2,scattered clouds,-30.1811,-50.2056,Hotel Castelo
23,Rikitea,23,pf,78.53,light rain,-23.1203,-134.9692,Pension Maro'i
25,Luganville,25,vu,84.47,overcast clouds,-15.5333,167.1667,The Espiritu Hotel
26,New Norfolk,26,au,79.0,overcast clouds,-42.7826,147.0587,The Shingles Riverside Cottages
27,Port Elizabeth,27,za,64.4,clear sky,-33.918,25.5701,39 On Nile Guest House
28,Pisco,28,pe,68.0,clear sky,-13.7,-76.2167,Hotel San Isidro Oficial
29,Chuy,29,uy,63.27,overcast clouds,-33.6971,-53.4616,Nuevo Hotel Plaza
30,Vaini,30,to,86.0,broken clouds,-21.2,-175.2,Keleti Beach Resort
31,Chishtian Mandi,31,pk,76.71,clear sky,29.8,72.8667,Boys Hostel
32,Nhulunbuy,32,au,78.8,light rain,-12.2333,136.7667,East Arnhem Real Estate
34,Port Alfred,34,za,65.46,overcast clouds,-33.5906,26.891,The Halyards Hotel
35,San Luis,35,ar,61.32,clear sky,-33.295,-66.3356,Huarpes Hotel
36,Namibe,36,ao,74.14,broken clouds,-15.1961,12.1522,Hotel Chik Chik Namibe
37,Cayenne,37,gf,79.0,scattered clouds,4.9333,-52.3333,Hôtel Le Dronmi
39,Marsh Harbour,39,bs,75.72,broken clouds,26.5412,-77.0636,Abaco Beach Resort
41,Cape Town,41,za,62.01,few clouds,-33.9258,18.4232,Southern Sun Waterfront Cape Town
46,Busselton,46,au,76.84,overcast clouds,-33.65,115.3333,Observatory Guest House
47,Atuona,47,pf,80.8,broken clouds,-9.8,-139.0333,Villa Enata
48,Dingle,48,ie,85.57,overcast clouds,10.9995,122.6711,SEGAYA PROPERTY
50,San Quintin,50,mx,64.38,few clouds,30.4833,-115.95,Old Mill Hotel
55,Shintomi,55,jp,64.4,broken clouds,32.0785,131.4723,ホテルスイート
57,Luderitz,57,na,66.45,clear sky,-26.6481,15.1594,LÜDERITZ NEST HOTEL
58,Bowen,58,au,82.4,clear sky,-20.0167,148.2333,Castle Motor Lodge Motel
59,Avarua,59,ck,84.2,few clouds,-21.2078,-159.775,Paradise Inn
60,Butaritari,60,ki,82.58,few clouds,3.0707,172.7902,Isles Sunset Lodge
63,San Carlos De Bariloche,63,ar,60.8,light rain,-41.1456,-71.3082,Hotel Patagonia
65,Hilo,65,us,75.2,overcast clouds,19.7297,-155.09,Hilo Hawaiian Hotel
67,Moussoro,67,td,68.74,broken clouds,13.6408,16.4901,Pharmacie alnadja Moussoro
68,Xilitla,68,mx,70.54,overcast clouds,21.3333,-98.9667,Rio Tancuilin
75,Arraial Do Cabo,75,br,74.41,scattered clouds,-22.9661,-42.0278,Pousada Porto Praia
76,Tarata,76,pe,62.6,broken clouds,-17.6167,-66.0167,Alojamiento IV Centenario
77,Airai,77,pw,63.36,overcast clouds,-8.9266,125.4092,Juvinal Martin
78,Marihatag,78,ph,81.54,light rain,8.7936,126.2969,Mariner's Place & Resort
79,Live Oak,79,us,66.99,clear sky,36.9836,-121.9805,Best Western Plus All Suites Inn
80,Bhander,80,in,82.44,clear sky,25.7333,78.75,Rahul namdev LiC
81,Sainte-Marie,81,mq,73.4,clear sky,-20.8968,55.5496,Les pailles en queue de Sainte Marie
82,Muroto,82,jp,69.8,broken clouds,33.2833,134.15,Oota Ryokan
83,Lorengau,83,pg,83.66,broken clouds,-2.0226,147.2712,Lorengau Harbourside Hotel
84,Tuatapere,84,nz,62.01,overcast clouds,-46.1333,167.6833,Ron and Tony's Bed & Breakfast
87,Saint George,87,bm,66.2,clear sky,37.1041,-113.5841,Best Western Plus Abbey Inn
89,Ixtapa,89,mx,75.2,few clouds,20.7,-105.2,Hotel Plaza Providencia
91,Voh,91,nc,82.18,light rain,-20.9667,164.7,Le gîte du Koniambo
93,Portland,93,au,66.2,broken clouds,45.5234,-122.6762,Embassy Suites by Hilton Portland Downtown
97,Alta Floresta,97,br,70.75,moderate rain,-9.8756,-56.0861,Floresta Amazonica Hotel
99,Tadpatri,99,in,88.9,scattered clouds,14.9167,78.0167,Ranga lodge
103,Carnarvon,103,au,91.4,clear sky,-24.8667,113.6333,Hospitality Carnarvon
104,Rio Grande,104,br,66.58,scattered clouds,-32.035,-52.0986,Hotel Atlântico Rio Grande
105,Mulki,105,in,82.4,few clouds,13.1,74.8,Karnire Camping Ground
106,Georgetown,106,sh,87.8,few clouds,5.4112,100.3354,Cititel Penang
108,Bubaque,108,gw,76.24,clear sky,11.2833,-15.8333,"Casa Dora, Bubaque"
112,Geraldton,112,au,95.0,clear sky,-28.7667,114.6,Broadwater Mariner Resort
113,Broken Hill,113,au,82.4,clear sky,-31.95,141.4333,Royal Exchange Hotel
114,Sao Jose Da Coroa Grande,114,br,78.55,overcast clouds,-8.8978,-35.1478,Crôa Mares Hotel
115,Iquitos,115,pe,75.2,scattered clouds,-3.7481,-73.2472,Casa Morey Hotel & Restaurant
117,Matara,117,lk,82.85,scattered clouds,5.9485,80.5353,Amaloh Boutique Resort
118,Coahuayana,118,mx,72.52,overcast clouds,18.7333,-103.6833,El rranchito michuacan de ocampos
119,Chake Chake,119,tz,75.99,moderate rain,-5.2459,39.7666,Hotel Archipelago
124,Cap Malheureux,124,mu,77.0,few clouds,-19.9842,57.6142,Pereybere Hotel & Spa
125,Padang,125,id,82.4,light rain,-0.9492,100.3543,Mercure Padang
126,Huarmey,126,pe,69.94,few clouds,-10.0681,-78.1522,Hotel Miramar
128,Kaitangata,128,nz,60.01,broken clouds,-46.2817,169.8464,Kaitangata Motor Camp
129,Touros,129,br,77.0,scattered clouds,-5.1989,-35.4608,INN NEW HORIZON
130,Dakar,130,sn,64.4,clear sky,14.6937,-17.4441,Redface Studios Meublés
131,Bluff,131,nz,62.01,overcast clouds,-46.6,168.3333,Bluff Homestead - Guesthouse & Campervan Park
137,Kirakira,137,sb,82.92,broken clouds,-10.4544,161.9205,SanBiz Lodge
142,Tabuk,142,sa,87.04,clear sky,17.4189,121.4443,Golden Berries Hotel and Convention
143,El Alto,143,pe,69.39,few clouds,-4.2714,-81.2147,Black Marlin Restaurant & Hospedaje
146,Santa Lucia,146,es,66.2,scattered clouds,27.9117,-15.5407,Las Tirajanas
148,Itacare,148,br,82.4,scattered clouds,-14.2775,-38.9967,Ecoporan Hotel Charme Spa & Eventos
149,Plettenberg Bay,149,za,61.77,overcast clouds,-34.0527,23.3716,Thanda Vista B&B
150,Katsuura,150,jp,69.01,broken clouds,35.1333,140.3,Katsuura Hotel Mikazuki
151,Sur,151,om,80.51,scattered clouds,22.5667,59.5289,Sur Plaza Hotel
153,Nishihara,153,jp,82.4,broken clouds,26.1842,127.7558,Minshuku Agaihama
157,Guerrero Negro,157,mx,68.76,broken clouds,27.9769,-114.0611,"Casa Laguna, Bed & Breakfast"
158,Vila Velha,158,br,71.6,light rain,-20.3297,-40.2925,Quality Suites Vila Velha
161,Mahebourg,161,mu,75.2,broken clouds,-20.4081,57.7,Shandrani Beachcomber Resort & Spa
164,Yulara,164,au,80.6,clear sky,-25.2406,130.9889,Desert Gardens Hotel - Ayers Rock Resort
165,Tolaga Bay,165,nz,63.54,scattered clouds,-38.3667,178.3,Tolaga Bay Motel
169,San Patricio,169,mx,71.6,overcast clouds,28.017,-97.5169,"Motel 6 Sinton, TX"
170,Flinders,170,au,79.0,clear sky,-34.5833,150.8552,Shellharbour Resort & Conference Centre
171,Nakatsu,171,jp,64.0,clear sky,33.5981,131.1883,Toyoko Inn Oita Nakatsu Ekimae
172,Cabo San Lucas,172,mx,78.8,broken clouds,22.8909,-109.9124,Hotel Tesoro Los Cabos
176,Morant Bay,176,jm,80.6,few clouds,17.8815,-76.4093,Whispering Bamboo Cove Resort
178,Birin,178,dz,65.86,clear sky,26.8865,88.0718,Sangam hotel and lodge
179,Bengkulu,179,id,81.5,light rain,-3.8004,102.2655,Grage Hotel Bengkulu
181,Akyab,181,mm,81.16,overcast clouds,20.15,92.9,Hotel Memory
186,Balikpapan,186,id,87.57,broken clouds,-1.2675,116.8289,ibis Balikpapan
187,Lima,187,pe,72.0,clear sky,-12.0432,-77.0282,Gran Hotel Bolivar Lima
191,Vicente Guerrero,191,mx,66.2,scattered clouds,19.1194,-98.1708,Churros Inn
193,Kapaa,193,us,78.8,light rain,22.0752,-159.319,Sheraton Kauai Resort at Coconut Beach
195,Ternate,195,id,84.96,overcast clouds,0.8,127.4,Grand Dafam Bela Ternate
197,Areosa,197,pt,62.6,broken clouds,41.7178,-8.8571,Hotel Flôr de Sal
198,Codrington,198,ag,80.8,overcast clouds,-38.2667,141.9667,Codrington Gardens Bed And Breakfast
205,Grand Gaube,205,mu,77.0,few clouds,-20.0064,57.6608,Veranda Paul et Virginie Hotel & Spa
207,Nagar Karnul,207,in,87.85,scattered clouds,16.4821,78.3247,Sanjeevani Hills
208,Buchanan,208,lr,75.2,mist,5.8808,-10.0467,Kamaneahn Hotel Inc
210,Itarema,210,br,77.2,overcast clouds,-2.9248,-39.9167,"Sea Lounge! Bar, Club & Restaurant"
212,East London,212,za,66.06,scattered clouds,-33.0153,27.9116,Tu Casa
216,Ilo,216,pe,69.8,overcast clouds,-17.6394,-71.3375,Torreblanca Hotel
218,Los Llanos De Aridane,218,es,64.4,broken clouds,28.6585,-17.9182,Valle Aridane
219,Wanning,219,cn,83.95,few clouds,18.8003,110.3967,Paradise Hotel
220,Pangkalanbuun,220,id,87.89,overcast clouds,-2.6833,111.6167,Grand Kecubung Hotel
221,Porto Santo,221,pt,60.8,few clouds,33.071999999999996,-16.3415,Hotel Porto Santo & Spa
222,Kieta,222,pg,85.21,light rain,-6.2167,155.6333,Uruna Bay Retreat
224,Esperance,224,au,73.4,few clouds,-33.8667,121.9,Hospitality Esperance
227,Kassala,227,sd,79.74,broken clouds,15.450999999999999,36.4,Amassi Hotel Gash
228,Christchurch,228,nz,66.0,clear sky,-43.5333,172.6333,The George
229,Laguna,229,br,75.2,clear sky,38.421,-121.4238,Holiday Inn Express & Suites Elk Grove Central - Hwy 99
236,Kaeo,236,nz,70.0,scattered clouds,-35.1,173.7833,Bushido Lodge
237,Pala,237,td,74.1,scattered clouds,9.3642,14.9046,Nectar Hôtel de Pala
244,Leshan,244,cn,60.37,overcast clouds,29.5623,103.7639,Leshan Haiyun International Youth Hostel
245,Along,245,in,64.96,overcast clouds,28.1667,94.7667,Hotel West
249,Calabozo,249,ve,84.79,overcast clouds,8.9242,-67.4293,Hotel Giardini
250,Kavieng,250,pg,83.61,light rain,-2.5744,150.7967,Nusa Island Retreat
251,Pitimbu,251,br,78.8,clear sky,-7.4706,-34.8086,Reserva do Abiaí
254,Alice Springs,254,au,87.01,clear sky,-23.7,133.8833,Desert Palms Alice Springs
255,Boyolangu,255,id,84.76,overcast clouds,-8.1181,111.8935,Yos ega cv
256,Atambua,256,id,77.79,overcast clouds,-9.1061,124.8925,Pastori 1 Jemaat Polycarpus
257,Sirjan,257,ir,61.29,clear sky,29.451999999999998,55.6814,MAPNA Building
258,Kahului,258,us,80.6,scattered clouds,20.8947,-156.47,Maui Seaside Hotel
260,Betioky,260,mg,62.96,clear sky,-23.7167,44.3833,Bungalows Acacias Hotel
263,Vao,263,nc,75.61,light rain,-22.6667,167.4833,Hotel Kou-Bugny
266,Hasaki,266,jp,69.01,broken clouds,35.7333,140.8333,Hotel Sunrise Choshi
267,Linjiang,267,cn,65.1,broken clouds,41.8069,126.9078,格林豪泰
268,Ranong,268,th,86.0,few clouds,9.9658,98.6348,Tinidee Hotel@Ranong
272,Naze,272,jp,71.6,broken clouds,28.3667,129.4833,奄美ポートタワーホテル
275,Bereda,275,so,71.6,clear sky,43.2686,-7.5406,Pazo de Verdes
276,Itoman,276,jp,80.01,scattered clouds,26.1247,127.6694,Southern Beach Hotel & Resort Okinawa
278,Shimoda,278,jp,64.4,scattered clouds,34.6667,138.95,Shimoda Tokyu Hotel
279,Faya,279,td,60.8,clear sky,18.3851,42.4509,مقبرة ال مجمل
281,Kavaratti,281,in,83.61,scattered clouds,10.5669,72.642,Hotels in Lakshadweep Islands
283,Paracuru,283,br,80.01,overcast clouds,-3.41,-39.0306,Hotel Vento Brasil
284,Bathsheba,284,bb,77.0,scattered clouds,13.2167,-59.5167,Atlantis Hotel
285,Mount Isa,285,au,89.6,scattered clouds,-20.7333,139.5,ibis Styles Mt Isa Verona
286,Ginda,286,er,66.2,clear sky,30.6945,78.4932,Bal uma sankar hotel and restaurant
287,Borba,287,br,73.72,overcast clouds,-4.3878,-59.5939,Hotel da Amazônia
290,Oudtshoorn,290,za,60.8,scattered clouds,-33.5907,22.2014,Earthbound Guest House
291,Shingu,291,jp,68.0,broken clouds,33.7333,135.9833,Shingu UI Hotel
293,Labuhan,293,id,83.7,overcast clouds,-6.8844,112.2051,PT PPI Lamongan Tambak C
295,Puerto Ayacucho,295,ve,75.15,light rain,5.6639,-67.6236,Posada Turistica Manapiare
297,Champerico,297,gt,70.0,clear sky,14.3,-91.9167,"Hotel y restaurante ""El Diamante"""
299,Kudahuvadhoo,299,mv,83.79,moderate rain,2.6708,72.8944,Niyama Private Islands Maldives
300,Gariaband,300,in,78.8,haze,20.635,82.0614,हंसराज ट्रैक्टर
302,Luau,302,ao,62.29,light rain,-10.7073,22.2247,Casa- Bernardo Cândido
303,Baculin,303,ph,82.2,overcast clouds,7.4525,126.5842,Shovy's Cove
305,Port Lincoln,305,au,80.17,clear sky,-34.7333,135.8667,Port Lincoln Hotel
308,Port Blair,308,in,78.73,overcast clouds,11.6667,92.75,Welcomhotel Bay Island Port Blair
309,Manggar,309,id,84.24,overcast clouds,-2.8833,108.2667,Guest Hotel
311,Lata,311,sb,61.0,broken clouds,40.1629,-8.3327,Casa Maquia
312,Honiara,312,sb,84.0,overcast clouds,-9.4333,159.95,Heritage Park Hotel
314,Warri,314,ng,77.67,overcast clouds,5.5167,5.75,BON Hotel Delta
318,Bambous Virieux,318,mu,77.0,broken clouds,-20.3428,57.7575,Casa Tia Villa
320,Meulaboh,320,id,75.27,overcast clouds,4.1363,96.1285,Kost Pria
321,San Cristobal,321,ec,77.0,few clouds,7.7669,-72.225,Posada Villaven C.A.
322,Lake Charles,322,us,60.8,overcast clouds,30.2131,-93.2044,La Quinta Inn & Suites by Wyndham Lake Charles Casino Area
324,Seoul,324,kr,68.0,clear sky,37.5683,126.9778,Lotte Hotel Seoul
327,San Juan,327,us,70.93,clear sky,-31.5375,-68.5364,Hotel Provincial
329,Leeton,329,au,77.0,clear sky,-34.5667,146.4,Historic Hydro Motor Inn
332,San Pedro,332,bz,90.0,scattered clouds,14.35,121.0167,OYO 412 Viewfort Venue
335,Cairns,335,au,86.0,scattered clouds,-16.9167,145.7667,Mantra Trilogy Cairns
336,Quatre Cocos,336,mu,77.0,broken clouds,-20.2078,57.7625,Emeraude Beach Attitude Hotel
338,Bundaberg,338,au,80.6,broken clouds,-24.85,152.35,Takalvan Motel
339,Mar Del Plata,339,ar,64.99,clear sky,-38.0023,-57.5575,Gran Hotel Mar del Plata
340,Gouyave,340,gd,77.27,scattered clouds,12.1646,-61.7296,Rumboat Retreat
342,Hobyo,342,so,79.38,scattered clouds,5.3505,48.5268,Halane Hotel and Restaurent
343,Muisne,343,ec,77.43,overcast clouds,0.6,-80.0333,Quinta Samay
344,Salalah,344,om,75.2,clear sky,17.0151,54.0924,HAMDAN PLAZA HOTEL SALALAH
346,Sao Joao Da Barra,346,br,71.31,scattered clouds,-21.6403,-41.0511,Pousada Porto De Canoas
352,Bandarbeyla,352,so,75.25,broken clouds,9.4942,50.8122,JABIR HOTEL
353,Maltahohe,353,na,63.63,few clouds,-24.8333,16.9833,Maltahöhe Hotel
354,Carballo,354,es,71.6,clear sky,43.213,-8.691,Pazo do Souto
355,Lompoc,355,us,63.0,clear sky,34.6391,-120.4579,Holiday Inn Express Lompoc
356,Wahiawa,356,us,82.4,few clouds,21.5028,-158.0236,Aloha Wahiawa
358,Souillac,358,mu,75.2,broken clouds,-20.5167,57.5167,Shanti Maurice Resort & Spa
359,Diu,359,in,80.1,clear sky,20.7141,70.9822,Hotel Relax Inn
360,Dickinson,360,us,64.4,broken clouds,29.4608,-95.0513,Hampton Inn & Suites Houston/League City
361,Chumphon,361,th,87.01,few clouds,10.3333,98.8333,สกาน จ๋า.
363,Sa Kaeo,363,th,94.57,clear sky,13.75,102.3333,บ้านร่มฉัตร รีสอร์ท
365,Tura,365,ru,77.67,scattered clouds,25.5198,90.2201,Hotel RIKMAN Continental
366,Saint-Pierre,366,pm,78.8,light rain,-21.3393,55.4781,Lindsey Hôtel
370,Ewa Beach,370,us,82.4,few clouds,21.3156,-158.0072,Uncle Junior Robert
371,Muros,371,es,68.0,clear sky,42.7762,-9.0603,Apartment Av. Castelao
372,Kruisfontein,372,za,64.0,overcast clouds,-34.0033,24.7314,Oyster Bay House Rental
376,Netrakona,376,bd,80.6,broken clouds,24.8833,90.7167,kurpar gas office
379,Isangel,379,vu,83.48,overcast clouds,-19.55,169.2667,Volcano Sea View Tree House
380,Doha,380,qa,77.0,clear sky,25.2867,51.5333,Doha Marriott Hotel
383,Galesong,383,id,75.2,moderate rain,-5.3166,119.3661,Sapriadi Appy
386,Meiktila,386,mm,89.82,few clouds,20.8667,95.8667,The Floral Breeze Wunzin Hotel
389,Mount Pleasant,389,us,66.99,overcast clouds,32.7941,-79.8626,Best Western Patriots Point
390,Hualmay,390,pe,68.43,few clouds,-11.0964,-77.6139,Hotel Villa Kitzia Huacho
396,Kundiawa,396,pg,79.25,overcast clouds,-6.0167,144.9667,Kundiawa Hotel
397,Sompeta,397,in,91.51,clear sky,18.9333,84.6,బెంకిలి భైరొడమ్మ క్రికెట్ గ్రౌండ్
398,Kisangani,398,cd,70.72,overcast clouds,0.5167,25.2,Grand Ramela Hotel
404,Porto Novo,404,cv,84.2,scattered clouds,6.4965,2.6036,Tour Eiffel Hotel Benin
406,Kaohsiung,406,tw,86.0,broken clouds,22.6163,120.3133,Kindness Hotel
409,Buraydah,409,sa,71.6,few clouds,26.326,43.975,فندق راحة السلام
410,Maues,410,br,73.42,light rain,-3.3836,-57.7186,Hotel Miramar
417,Altamira,417,br,71.73,overcast clouds,-3.2033,-52.2064,Requinte Hotel
418,Hambantota,418,lk,80.6,few clouds,6.1241,81.1185,Bungalow 63
422,Bac Lieu,422,vn,87.22,overcast clouds,9.285,105.7244,Khách sạn Sài Gòn Bạc Liêu
424,Victoria,424,sc,84.0,overcast clouds,22.2855,114.1577,Mini Hotel Central
426,Langsa,426,id,87.55,overcast clouds,4.4683,97.9683,OYO 2964 Hotel Ridho
428,Benguela,428,ao,76.93,light rain,-12.5763,13.4055,Hotel Praia Morena
432,Half Moon Bay,432,us,77.0,haze,37.4636,-122.4286,"The Ritz-Carlton, Half Moon Bay"
433,Santa Isabel Do Rio Negro,433,br,73.38,light rain,-0.4139,-65.0192,Hotel GSA
434,Miami,434,us,78.8,few clouds,25.7743,-80.1937,Miami Sun Hotel
435,The Valley,435,ai,77.0,few clouds,18.217,-63.0578,CeBlue Villas & Beach Resort
436,Kochi,436,in,82.4,mist,9.9399,76.2602,Hotel Abad
438,Presidente Bernardes,438,br,71.6,clear sky,-22.0061,-51.5531,Hotel Central
439,Buta,439,cd,74.37,overcast clouds,2.7858,24.73,HOTEL BISO NA BISO
440,Tshikapa,440,cd,69.06,overcast clouds,-6.4167,20.8,Hôtel Tshia-Muntu de Tshikapa
441,Itaituba,441,br,73.54,moderate rain,-4.2761,-55.9836,Hotel Campos
443,Alofi,443,nu,86.0,broken clouds,-19.0595,-169.9187,Taloa Heights
444,Praia,444,cv,68.0,broken clouds,14.9215,-23.5087,LT Aparthotel
446,Dongying,446,cn,65.19,overcast clouds,37.4564,118.4856,Wanda Realm
448,Cockburn Town,448,tc,77.2,clear sky,21.4612,-71.1419,Osprey Beach Hotel
450,Enshi,450,cn,61.43,overcast clouds,30.3,109.4833,Moevenpick Enshi
453,Celestun,453,mx,79.41,broken clouds,20.8667,-90.4,Posada Lilia
455,Kijang,455,id,68.0,clear sky,35.2442,129.2139,Samyang Beach Villa
456,Port Hedland,456,au,96.8,clear sky,-20.3167,118.5667,The Esplanade Hotel
458,Mubende,458,ug,60.64,overcast clouds,0.5606,31.39,Nakayima Hotel
459,Ilan,459,tw,84.0,light rain,24.756999999999998,121.75299999999999,Dar Chen Hotel
461,Adiake,461,ci,82.4,few clouds,5.2863,-3.304,Monhotel résidence Inn Adiake
462,Peniche,462,pt,61.0,overcast clouds,39.3558,-9.3811,Hotel Star inn Peniche
463,Mogok,463,mm,82.02,clear sky,22.9167,96.5,MOGOK HILL HOTEL
464,San Jose,464,bo,78.8,clear sky,37.3394,-121.895,The Westin San Jose
466,Pedernales,466,do,78.33,clear sky,18.0384,-71.744,Hotel Costa Marina
468,Inirida,468,co,74.05,overcast clouds,3.8653,-67.9239,Fuente del Guania Hotel de Lujo
471,Nichinan,471,jp,64.4,light rain,31.6,131.3667,Guest House Aki
472,Carutapera,472,br,75.6,overcast clouds,-1.195,-46.02,Lidera
476,Abaete,476,br,69.03,scattered clouds,-19.16,-45.4458,Hotel Millenium
480,Wanaka,480,nz,66.79,broken clouds,-44.7,169.15,Wanaka Homestead Lodge and Cottages
481,Nelson Bay,481,au,73.99,scattered clouds,-32.7167,152.15,Mantra Nelson Bay
482,Nsanje,482,mw,63.73,few clouds,-16.92,35.262,Nsanje Discovery Lodge
483,Sao Felix Do Xingu,483,br,71.62,broken clouds,-6.6447,-51.995,Rio Xingu Camping
484,Dabakala,484,ci,76.12,broken clouds,8.3667,-4.4333,Hôtel Campement
485,Iquique,485,cl,68.0,overcast clouds,-20.2208,-70.1431,Backpacker`s Hostel Iquique
487,Pochutla,487,mx,82.0,broken clouds,15.7432,-96.4661,Hotel Posada San Jose
492,Odweyne,492,so,67.15,overcast clouds,9.4092,45.06399999999999,Eng Hiirey House
494,Calabar,494,ng,78.93,broken clouds,4.9517,8.322000000000001,NAKS Hotels (Formerly NAF Club)
495,Biak,495,id,85.32,overcast clouds,-0.9131,122.8766,Penginapan Kim
497,Merauke,497,id,84.33,overcast clouds,-8.4667,140.3333,PC
500,Dhidhdhoo,500,mv,84.47,clear sky,6.8833,73.1,Dhidhoo beach
504,Mala,504,pe,69.64,scattered clouds,-12.6581,-76.6308,Hotel Granda
508,Canutama,508,br,71.37,light rain,-6.5339,-64.3831,Hotel Jhennifer
511,Kununurra,511,au,89.6,overcast clouds,-15.7667,128.7333,Hotel Kununurra
513,Kulhudhuffushi,513,mv,84.4,clear sky,6.6221,73.07,Haajy Guest House 1
515,Te Anau,515,nz,67.73,overcast clouds,-45.4167,167.7167,Kingsgate Hotel Te Anau
518,Malanje,518,ao,62.56,light rain,-9.5402,16.340999999999998,Malanje Hotel
519,Puerto Colombia,519,co,80.6,clear sky,10.9878,-74.9547,Hotel El Emigrante
521,Sinnamary,521,gf,76.51,overcast clouds,5.3833,-52.95,ALETHEIA Appartement Sinnamary
522,La Palma,522,pa,78.8,few clouds,33.8464,-118.0467,La Quinta Inn & Suites by Wyndham Buena Park
527,Tamandare,527,br,78.31,broken clouds,-8.7597,-35.1047,Pousada 100 Passos
532,Inhambane,532,mz,71.22,overcast clouds,-23.865,35.3833,Oceano
535,Sal Rei,535,cv,68.0,broken clouds,16.1833,-22.9167,Marine Club Beach Resort
536,Cape Canaveral,536,us,73.99,light rain,28.4058,-80.6048,Residence Inn by Marriott Cape Canaveral Cocoa Beach
537,Chokwe,537,mz,67.69,overcast clouds,-24.5333,32.9833,Complexo Sonho Real
541,Waingapu,541,id,82.98,moderate rain,-9.6567,120.2641,Pondok Wisata Elim
544,Riyadh,544,sa,77.0,clear sky,24.6877,46.7219,InterContinental Riyadh
546,Sabang,546,id,81.32,overcast clouds,5.8933,95.3214,Hotel Citra
547,Alyangula,547,au,86.95,broken clouds,-13.8483,136.4192,Groote Eylandt Lodge
549,Trinidad,549,bo,73.26,light rain,-14.8333,-64.9,Hotel Piesta
550,Karratha,550,au,94.41,clear sky,-20.7377,116.8463,ibis Styles Karratha
552,Dalbandin,552,pk,65.1,clear sky,28.8947,64.4101,Sanjrani House
553,Kendari,553,id,86.16,overcast clouds,-3.945,122.4989,Hotel Wixel
558,Ribas Do Rio Pardo,558,br,69.26,few clouds,-20.4431,-53.7592,Pousada Avenida
559,Boffa,559,gn,76.39,overcast clouds,10.1667,-14.0333,Hôtel Niara Belly
560,Acajutla,560,sv,79.0,clear sky,13.5928,-89.8275,asi es
562,Acarau,562,br,77.61,overcast clouds,-2.8856,-40.12,castelo pizzaria
564,Rumphi,564,mw,60.58,few clouds,-11.0186,33.8575,Finst Rumphi Earthbag House Lodge
566,Musoma,566,tz,66.65,overcast clouds,-1.5,33.8,New Peninsula Hotel
569,Dao,569,ph,84.47,overcast clouds,11.3937,122.6856,Mr. Rolando Tolores Jr.
570,Katherine,570,au,91.4,clear sky,-14.4667,132.2667,Pine Tree Motel
572,Ugoofaaru,572,mv,84.42,broken clouds,5.6667,73.0,Ungoofaaru Inn
575,Sawakin,575,sd,72.79,broken clouds,19.1059,37.3321,فندق الدويم
577,Digha,577,in,87.08,clear sky,21.6833,87.55,Khoniker Atithi
578,Tautira,578,pf,86.0,light rain,-17.7333,-149.15,Pension Oaoa
580,Ahipara,580,nz,67.03,scattered clouds,-35.1667,173.1667,Ahipara Holiday Park
581,Iacu,581,br,73.81,overcast clouds,-12.7672,-40.2117,Pousada e Restaurante Portal da Chapada
584,Takoradi,584,gh,79.23,few clouds,4.8845,-1.7554,Raybow International Hotel
590,Gusau,590,ng,72.3,scattered clouds,12.1628,6.6614,GUEST INN
591,Bani,591,do,75.0,clear sky,18.2833,-70.3333,Hospedaje Henriquez
592,Sanchazi,592,cn,61.93,broken clouds,42.0817,126.6003,Home Inn
593,Alvorada,593,br,76.3,broken clouds,-12.48,-49.1247,Cristal Plaza Hotel
594,Dongzhen,594,cn,87.01,clear sky,22.3797,110.9389,茂名中汇时尚酒店
596,Casa Nova,596,br,77.79,overcast clouds,-9.4167,-41.1333,Pousada e Restaurante Dona Xinha
597,Richards Bay,597,za,69.48,overcast clouds,-28.783,32.0377,BON Hotel Waterfront Richards Bay
599,Amparafaravola,599,mg,64.51,broken clouds,-17.5833,48.2167,Aina Franco
600,Thoen,600,th,93.99,scattered clouds,17.6129,99.2161,Nakornthoen Hotel
601,Nabire,601,id,86.63,overcast clouds,-3.3667,135.4833,Hotel Nusantara Nabire
602,Olimpia,602,br,75.2,clear sky,-20.7372,-48.9147,Hotel Savana
603,Palu,603,id,88.48,overcast clouds,-0.8917,119.8707,Hotel Santika Palu
604,Bluefields,604,ni,76.66,clear sky,12.0137,-83.7635,Flamingo Hotel and Casino
605,Samarai,605,pg,85.15,overcast clouds,-10.6167,150.6667,Nuli Sapi
607,South Venice,607,us,75.99,mist,27.0531,-82.4243,Rodeway Inn
608,Saint Pete Beach,608,us,75.99,broken clouds,27.7253,-82.7412,Grand Plaza Hotel - St. Pete Beach
609,Denpasar,609,id,86.0,few clouds,-8.65,115.2167,ASTON Denpasar Hotel & Convention Center
612,Poum,612,nc,79.16,overcast clouds,-20.2333,164.0167,Gîte kajeon
613,Mariental,613,na,67.53,clear sky,-24.6333,17.9667,Mariental Hotel
614,Eureka,614,us,64.4,clear sky,40.8021,-124.1637,Eureka Inn Trademark By Wyndham
615,Caravelas,615,br,74.68,overcast clouds,-17.7125,-39.2481,Pousada dos Navegantes
616,Quelimane,616,mz,75.2,clear sky,-17.8786,36.8883,Hotel Flamingo
619,Neiafu,619,to,84.2,scattered clouds,-18.65,-173.9833,Mystic Sands
620,Eydhafushi,620,mv,84.36,broken clouds,5.1033,73.0708,Soneva Fushi
621,Rio Verde De Mato Grosso,621,br,74.37,clear sky,-18.9181,-54.8442,Hotel Valência
622,Najran,622,sa,64.4,clear sky,17.4924,44.1277,محمد هادي ال فطيح
623,Hirara,623,jp,78.8,broken clouds,24.8,125.2833,Hotel Atoll Emerald Miyakojima
625,Lodwar,625,ke,79.48,clear sky,3.1191,35.5973,Turkwel Lodge
629,Irupi,629,br,62.92,scattered clouds,-20.3453,-41.6411,Hotel Pousada Caminhos do Caparaó
630,Ahuimanu,630,us,82.4,light rain,21.4447,-157.8378,Paradise Bay Resort
632,Ulladulla,632,au,75.2,few clouds,-35.35,150.4667,Sandpiper Motel
633,Senador Jose Porfirio,633,br,73.4,heavy intensity rain,-2.5908,-51.9542,Pousada Novo Horizonte
634,Agua Dulce,634,mx,77.2,clear sky,18.1333,-94.1333,Hotel Victoria
635,Torit,635,sd,73.92,overcast clouds,4.4133,32.5678,Diplomat Guest House
639,Simao,639,cn,82.78,clear sky,22.7886,100.9748,Changyu Hotel
642,Palasa,642,in,92.1,clear sky,18.7667,84.4167,Balaji tifen & meals veg & non veg hotel
643,Saint-Joseph,643,re,78.8,light rain,-21.3667,55.6167,"""Plantation Bed and Breakfast"
645,Pangai,645,to,86.0,few clouds,-19.8,-174.35,Ha'apai Beach Resort
646,Sola,646,vu,82.09,moderate rain,-13.8833,167.55,Leumerus Bungalows
650,Isiro,650,cd,68.88,overcast clouds,2.7739,27.616,Guest House Hewa Bora
651,Charters Towers,651,au,84.52,scattered clouds,-20.1,146.2667,Cattleman's Rest Motor Inn
653,Kokopo,653,pg,85.3,scattered clouds,-4.352,152.2633,Kokopo Beach Bungalow Resort
654,Jijiang,654,cn,60.01,light intensity drizzle,29.2906,106.2542,Chongqing Jiangjin Hotel
656,Tete,656,mz,64.4,few clouds,-16.1564,33.5867,Zambeze Paraíso Misterioso
657,Tiarei,657,pf,86.0,light rain,-17.5333,-149.3333,Le Rocher de Tahiti
658,Praxedis Guerrero,658,mx,62.6,clear sky,31.3667,-106.0167,Iglesia Bautista Dios con Nosotros
661,Vanimo,661,pg,87.26,broken clouds,-2.6741,141.3028,Vahmoneh Lodge Vanimo
662,Coronado,662,us,80.6,few clouds,32.6859,-117.1831,The El Cordova Hotel
665,Jacobina,665,br,70.88,overcast clouds,-11.1806,-40.5183,HOSTEL JACOBINA
666,Menongue,666,ao,62.22,overcast clouds,-14.6585,17.691,Ritz Lauca
667,Tarauaca,667,br,71.53,overcast clouds,-8.1614,-70.7656,Flat Temporada
668,Eldorado,668,mx,60.69,clear sky,-23.7869,-54.2836,Villa Verde Hotel
670,Vallenar,670,cl,62.35,few clouds,-28.5708,-70.7581,Humacao Bed & Breakfast
671,General Roca,671,ar,68.0,clear sky,-39.0333,-67.5833,Hotel y Casino del Río General Roca
672,Araceli,672,ph,82.83,light rain,10.5529,119.9913,JBryan Traveler's Inn
673,Aipe,673,co,73.13,overcast clouds,3.2222,-75.2367,Dunas Tatacoa
675,Santarem,675,br,78.8,scattered clouds,-2.4431,-54.7083,Ecotur Lodge
677,Dunedin,677,nz,61.0,scattered clouds,-45.8742,170.5036,Scenic Hotel Southern Cross
678,Pathein,678,mm,89.46,scattered clouds,16.7833,94.7333,New Pammawaddy Hotel
680,Eyl,680,so,72.91,broken clouds,7.9803,49.8164,Amiin Hotel
684,Puerto Del Rosario,684,es,68.0,clear sky,28.5004,-13.8627,Hotel JM Puerto del Rosario
